[
    {
        "city": "Whitehorse",
        "country": "Canada",
        "lat": 60.72,
        "lon": -135.05,
        "pop": 25085
    },
    {
        "city": "Atlin",
        "country": "Canada",
        "lat": 59.57,
        "lon": -133.71,
        "pop": 450
    },
    {
        "city": "Calgary (Border)",
        "country": "Canada",
        "lat": 51.04,
        "lon": -114.07,
        "pop": 1306784
    },
    {
        "city": "Iqaluit",
        "country": "Canada",
        "lat": 63.74,
        "lon": -68.51,
        "pop": 7740
    },
    {
        "city": "Alert",
        "country": "Canada",
        "lat": 82.5,
        "lon": -62.33,
        "pop": 62
    },
    {
        "city": "Vancouver",
        "country": "Canada",
        "lat": 49.28,
        "lon": -123.12,
        "pop": 675218
    },
    {
        "city": "Toronto",
        "country": "Canada",
        "lat": 43.65,
        "lon": -79.38,
        "pop": 2731571
    },
    {
        "city": "Montreal",
        "country": "Canada",
        "lat": 45.5,
        "lon": -73.56,
        "pop": 1704694
    },
    {
        "city": "Ottawa",
        "country": "Canada",
        "lat": 45.42,
        "lon": -75.69,
        "pop": 934243
    },
    {
        "city": "Edmonton",
        "country": "Canada",
        "lat": 53.54,
        "lon": -113.49,
        "pop": 932546
    },
    {
        "city": "Winnipeg",
        "country": "Canada",
        "lat": 49.89,
        "lon": -97.13,
        "pop": 705244
    },
    {
        "city": "Quebec City",
        "country": "Canada",
        "lat": 46.81,
        "lon": -71.2,
        "pop": 531902
    },
    {
        "city": "Halifax",
        "country": "Canada",
        "lat": 44.64,
        "lon": -63.57,
        "pop": 403131
    },
    {
        "city": "Victoria",
        "country": "Canada",
        "lat": 48.42,
        "lon": -123.36,
        "pop": 85792
    },
    {
        "city": "St. John's",
        "country": "Canada",
        "lat": 47.56,
        "lon": -52.71,
        "pop": 108860
    },
    {
        "city": "Saskatoon",
        "country": "Canada",
        "lat": 52.13,
        "lon": -106.67,
        "pop": 246376
    },
    {
        "city": "Regina",
        "country": "Canada",
        "lat": 50.44,
        "lon": -104.61,
        "pop": 215106
    },
    {
        "city": "Yellowknife",
        "country": "Canada",
        "lat": 62.45,
        "lon": -114.37,
        "pop": 19569
    },
    {
        "city": "Rome",
        "country": "Italy",
        "lat": 41.9,
        "lon": 12.49,
        "pop": 2873000
    },
    {
        "city": "Rieti",
        "country": "Italy",
        "lat": 42.4,
        "lon": 12.86,
        "pop": 47552
    },
    {
        "city": "Milan",
        "country": "Italy",
        "lat": 45.46,
        "lon": 9.18,
        "pop": 1352000
    },
    {
        "city": "Bologna",
        "country": "Italy",
        "lat": 44.49,
        "lon": 11.34,
        "pop": 390636
    },
    {
        "city": "Lampedusa",
        "country": "Italy",
        "lat": 35.51,
        "lon": 12.58,
        "pop": 6000
    },
    {
        "city": "Naples",
        "country": "Italy",
        "lat": 40.85,
        "lon": 14.26,
        "pop": 962003
    },
    {
        "city": "Turin",
        "country": "Italy",
        "lat": 45.07,
        "lon": 7.68,
        "pop": 886837
    },
    {
        "city": "Palermo",
        "country": "Italy",
        "lat": 38.11,
        "lon": 13.36,
        "pop": 673735
    },
    {
        "city": "Genoa",
        "country": "Italy",
        "lat": 44.4,
        "lon": 8.94,
        "pop": 583601
    },
    {
        "city": "Florence",
        "country": "Italy",
        "lat": 43.76,
        "lon": 11.25,
        "pop": 382258
    },
    {
        "city": "Venice",
        "country": "Italy",
        "lat": 45.44,
        "lon": 12.31,
        "pop": 261905
    },
    {
        "city": "Verona",
        "country": "Italy",
        "lat": 45.43,
        "lon": 10.99,
        "pop": 257353
    },
    {
        "city": "Messina",
        "country": "Italy",
        "lat": 38.19,
        "lon": 15.55,
        "pop": 234293
    },
    {
        "city": "Padua",
        "country": "Italy",
        "lat": 45.4,
        "lon": 11.87,
        "pop": 209829
    },
    {
        "city": "Trieste",
        "country": "Italy",
        "lat": 45.64,
        "lon": 13.77,
        "pop": 204234
    },
    {
        "city": "Brescia",
        "country": "Italy",
        "lat": 45.54,
        "lon": 10.21,
        "pop": 196480
    },
    {
        "city": "Cagliari",
        "country": "Italy",
        "lat": 39.22,
        "lon": 9.12,
        "pop": 154083
    },
    {
        "city": "Taranto",
        "country": "Italy",
        "lat": 40.46,
        "lon": 17.24,
        "pop": 198061
    },
    {
        "city": "Ishigaki",
        "country": "Japan",
        "lat": 24.34,
        "lon": 124.15,
        "pop": 48139
    },
    {
        "city": "Tokyo",
        "country": "Japan",
        "lat": 35.68,
        "lon": 139.69,
        "pop": 14047594
    },
    {
        "city": "Sapporo",
        "country": "Japan",
        "lat": 43.06,
        "lon": 141.35,
        "pop": 1973395
    },
    {
        "city": "Osaka",
        "country": "Japan",
        "lat": 34.69,
        "lon": 135.5,
        "pop": 2752412
    },
    {
        "city": "Nagoya",
        "country": "Japan",
        "lat": 35.18,
        "lon": 136.9,
        "pop": 2327557
    },
    {
        "city": "Fukuoka",
        "country": "Japan",
        "lat": 33.59,
        "lon": 130.4,
        "pop": 1603043
    },
    {
        "city": "Kyoto",
        "country": "Japan",
        "lat": 35.01,
        "lon": 135.76,
        "pop": 1463723
    },
    {
        "city": "Kawasaki",
        "country": "Japan",
        "lat": 35.53,
        "lon": 139.7,
        "pop": 1538356
    },
    {
        "city": "Saitama",
        "country": "Japan",
        "lat": 35.86,
        "lon": 139.64,
        "pop": 1324025
    },
    {
        "city": "Hiroshima",
        "country": "Japan",
        "lat": 34.38,
        "lon": 132.45,
        "pop": 1199391
    },
    {
        "city": "Sendai",
        "country": "Japan",
        "lat": 38.26,
        "lon": 140.87,
        "pop": 1096704
    },
    {
        "city": "Kitakyushu",
        "country": "Japan",
        "lat": 33.88,
        "lon": 130.88,
        "pop": 939029
    },
    {
        "city": "Nara",
        "country": "Japan",
        "lat": 34.68,
        "lon": 135.8,
        "pop": 354582
    },
    {
        "city": "Okinawa",
        "country": "Japan",
        "lat": 26.33,
        "lon": 127.8,
        "pop": 141827
    },
    {
        "city": "Nagano",
        "country": "Japan",
        "lat": 36.64,
        "lon": 138.19,
        "pop": 372734
    },
    {
        "city": "Kanazawa",
        "country": "Japan",
        "lat": 36.56,
        "lon": 136.65,
        "pop": 465239
    },
    {
        "city": "Bangkok",
        "country": "Thailand",
        "lat": 13.75,
        "lon": 100.5,
        "pop": 10539000
    },
    {
        "city": "Chiang Mai",
        "country": "Thailand",
        "lat": 18.78,
        "lon": 98.98,
        "pop": 127240
    },
    {
        "city": "Phuket",
        "country": "Thailand",
        "lat": 7.88,
        "lon": 98.39,
        "pop": 79000
    },
    {
        "city": "Pattaya",
        "country": "Thailand",
        "lat": 12.92,
        "lon": 100.88,
        "pop": 119530
    },
    {
        "city": "Surat Thani",
        "country": "Thailand",
        "lat": 9.14,
        "lon": 99.33,
        "pop": 132000
    },
    {
        "city": "Udon Thani",
        "country": "Thailand",
        "lat": 17.41,
        "lon": 102.78,
        "pop": 130531
    },
    {
        "city": "Khon Kaen",
        "country": "Thailand",
        "lat": 16.43,
        "lon": 102.82,
        "pop": 114459
    },
    {
        "city": "Auckland",
        "country": "New_Zealand",
        "lat": -36.84,
        "lon": 174.76,
        "pop": 1657000
    },
    {
        "city": "Alexandra",
        "country": "New_Zealand",
        "lat": -45.24,
        "lon": 169.39,
        "pop": 5510
    },
    {
        "city": "Alofi (Admin)",
        "country": "New_Zealand",
        "lat": -19.05,
        "lon": -169.92,
        "pop": 597
    },
    {
        "city": "Wellington",
        "country": "New_Zealand",
        "lat": -41.28,
        "lon": 174.77,
        "pop": 212700
    },
    {
        "city": "Christchurch",
        "country": "New_Zealand",
        "lat": -43.53,
        "lon": 172.63,
        "pop": 381500
    },
    {
        "city": "Hamilton",
        "country": "New_Zealand",
        "lat": -37.78,
        "lon": 175.27,
        "pop": 176500
    },
    {
        "city": "Dunedin",
        "country": "New_Zealand",
        "lat": -45.87,
        "lon": 170.5,
        "pop": 130400
    },
    {
        "city": "Tauranga",
        "country": "New_Zealand",
        "lat": -37.68,
        "lon": 176.16,
        "pop": 151300
    },
    {
        "city": "Buenaventura",
        "country": "Colombia",
        "lat": 3.88,
        "lon": -77.03,
        "pop": 432385
    },
    {
        "city": "Cali",
        "country": "Colombia",
        "lat": 3.45,
        "lon": -76.53,
        "pop": 2227642
    },
    {
        "city": "Cartagena",
        "country": "Colombia",
        "lat": 10.39,
        "lon": -75.47,
        "pop": 1028736
    },
    {
        "city": "Bogot\u00e1",
        "country": "Colombia",
        "lat": 4.61,
        "lon": -74.08,
        "pop": 7412566
    },
    {
        "city": "Medell\u00edn",
        "country": "Colombia",
        "lat": 6.24,
        "lon": -75.58,
        "pop": 2569000
    },
    {
        "city": "Barranquilla",
        "country": "Colombia",
        "lat": 10.96,
        "lon": -74.79,
        "pop": 1206000
    },
    {
        "city": "Pereira",
        "country": "Colombia",
        "lat": 4.81,
        "lon": -75.69,
        "pop": 474356
    },
    {
        "city": "Bucaramanga",
        "country": "Colombia",
        "lat": 7.11,
        "lon": -73.11,
        "pop": 528683
    },
    {
        "city": "Hu\u00e1nuco",
        "country": "Peru",
        "lat": -9.93,
        "lon": -76.24,
        "pop": 196000
    },
    {
        "city": "Cusco",
        "country": "Peru",
        "lat": -13.53,
        "lon": -71.96,
        "pop": 428450
    },
    {
        "city": "Cerro de Pasco",
        "country": "Peru",
        "lat": -10.66,
        "lon": -76.25,
        "pop": 66272
    },
    {
        "city": "Lima",
        "country": "Peru",
        "lat": -12.04,
        "lon": -77.04,
        "pop": 9674755
    },
    {
        "city": "Arequipa",
        "country": "Peru",
        "lat": -16.4,
        "lon": -71.53,
        "pop": 1008290
    },
    {
        "city": "Trujillo",
        "country": "Peru",
        "lat": -8.11,
        "lon": -79.03,
        "pop": 919899
    },
    {
        "city": "Chiclayo",
        "country": "Peru",
        "lat": -6.77,
        "lon": -79.84,
        "pop": 552508
    },
    {
        "city": "Piura",
        "country": "Peru",
        "lat": -5.19,
        "lon": -80.63,
        "pop": 476225
    },
    {
        "city": "Iquitos",
        "country": "Peru",
        "lat": -3.74,
        "lon": -73.25,
        "pop": 437376
    },
    {
        "city": "Ouarzazate",
        "country": "Morocco",
        "lat": 30.91,
        "lon": -6.91,
        "pop": 71067
    },
    {
        "city": "Agadir",
        "country": "Morocco",
        "lat": 30.42,
        "lon": -9.59,
        "pop": 421844
    },
    {
        "city": "Oujda",
        "country": "Morocco",
        "lat": 34.68,
        "lon": -1.91,
        "pop": 494252
    },
    {
        "city": "Casablanca",
        "country": "Morocco",
        "lat": 33.57,
        "lon": -7.58,
        "pop": 3359818
    },
    {
        "city": "Rabat",
        "country": "Morocco",
        "lat": 34.02,
        "lon": -6.83,
        "pop": 577827
    },
    {
        "city": "Marrakesh",
        "country": "Morocco",
        "lat": 31.62,
        "lon": -7.98,
        "pop": 928850
    },
    {
        "city": "Fes",
        "country": "Morocco",
        "lat": 34.01,
        "lon": -5.0,
        "pop": 1112072
    },
    {
        "city": "Tangier",
        "country": "Morocco",
        "lat": 35.75,
        "lon": -5.83,
        "pop": 947952
    },
    {
        "city": "Warsaw",
        "country": "Poland",
        "lat": 52.22,
        "lon": 21.01,
        "pop": 1765000
    },
    {
        "city": "Krak\u00f3w",
        "country": "Poland",
        "lat": 50.06,
        "lon": 19.94,
        "pop": 766739
    },
    {
        "city": "\u0141\u00f3d\u017a",
        "country": "Poland",
        "lat": 51.75,
        "lon": 19.45,
        "pop": 690422
    },
    {
        "city": "Wroc\u0142aw",
        "country": "Poland",
        "lat": 51.1,
        "lon": 17.03,
        "pop": 638659
    },
    {
        "city": "Pozna\u0144",
        "country": "Poland",
        "lat": 52.4,
        "lon": 16.92,
        "pop": 535802
    },
    {
        "city": "Dublin",
        "country": "Ireland",
        "lat": 53.34,
        "lon": -6.26,
        "pop": 544107
    },
    {
        "city": "Cork",
        "country": "Ireland",
        "lat": 51.89,
        "lon": -8.47,
        "pop": 124391
    },
    {
        "city": "Galway",
        "country": "Ireland",
        "lat": 53.27,
        "lon": -9.05,
        "pop": 79934
    },
    {
        "city": "Dalanzadgad",
        "country": "Mongolia",
        "lat": 43.57,
        "lon": 104.42,
        "pop": 26600
    },
    {
        "city": "Ulaanbaatar",
        "country": "Mongolia",
        "lat": 47.91,
        "lon": 106.91,
        "pop": 1452000
    },
    {
        "city": "Bulgan",
        "country": "Mongolia",
        "lat": 48.81,
        "lon": 103.53,
        "pop": 12300
    },
    {
        "city": "Tsetserleg",
        "country": "Mongolia",
        "lat": 47.47,
        "lon": 101.45,
        "pop": 21600
    },
    {
        "city": "Erdenet",
        "country": "Mongolia",
        "lat": 49.03,
        "lon": 104.04,
        "pop": 97265
    },
    {
        "city": "Belgrade",
        "country": "Serbia",
        "lat": 44.78,
        "lon": 20.44,
        "pop": 1374000
    },
    {
        "city": "Novi Sad",
        "country": "Serbia",
        "lat": 45.26,
        "lon": 19.83,
        "pop": 250439
    },
    {
        "city": "Ni\u0161",
        "country": "Serbia",
        "lat": 43.32,
        "lon": 21.89,
        "pop": 183164
    },
    {
        "city": "Vienna",
        "country": "Austria",
        "lat": 48.2,
        "lon": 16.37,
        "pop": 1897000
    },
    {
        "city": "Graz",
        "country": "Austria",
        "lat": 47.07,
        "lon": 15.43,
        "pop": 291072
    },
    {
        "city": "Linz",
        "country": "Austria",
        "lat": 48.3,
        "lon": 14.28,
        "pop": 204846
    },
    {
        "city": "Brampton",
        "country": "Canada",
        "lat": 43.73,
        "lon": -79.76,
        "pop": 593638
    },
    {
        "city": "Hamilton_CA",
        "country": "Canada",
        "lat": 43.25,
        "lon": -79.87,
        "pop": 536917
    },
    {
        "city": "Surrey",
        "country": "Canada",
        "lat": 49.19,
        "lon": -122.84,
        "pop": 517887
    },
    {
        "city": "Laval",
        "country": "Canada",
        "lat": 45.6,
        "lon": -73.71,
        "pop": 422993
    },
    {
        "city": "London_CA",
        "country": "Canada",
        "lat": 42.98,
        "lon": -81.24,
        "pop": 383822
    },
    {
        "city": "Chiba",
        "country": "Japan",
        "lat": 35.6,
        "lon": 140.1,
        "pop": 971882
    },
    {
        "city": "Sakai",
        "country": "Japan",
        "lat": 34.57,
        "lon": 135.48,
        "pop": 826161
    },
    {
        "city": "Hamamatsu",
        "country": "Japan",
        "lat": 34.7,
        "lon": 137.73,
        "pop": 791475
    },
    {
        "city": "Niigata",
        "country": "Japan",
        "lat": 37.91,
        "lon": 139.04,
        "pop": 795353
    },
    {
        "city": "Bari",
        "country": "Italy",
        "lat": 41.11,
        "lon": 16.87,
        "pop": 324198
    },
    {
        "city": "Catania",
        "country": "Italy",
        "lat": 37.5,
        "lon": 15.08,
        "pop": 311584
    }
]